{
  "restaurants": [
    {
      "name": "Проспект Каныша Сатпаева, 8а, Усть-Каменогорск",
      "address": "Проспект Каныша Сатпаева, 8а, Усть-Каменогорск, Усть-Каменогорск городская администрация",
      "lat": 49.899618,
      "lon": 82.618951,
      "city": "Усть-Каменогорск",
      "region": "Восточно-Казахстанская область"
    },
    {
      "name": "Самарское шоссе, 5/1, Усть-Каменогорск",
      "address": "Самарское шоссе, 5/1, Усть-Каменогорск, Усть-Каменогорск городская администрация",
      "lat": 49.898639,
      "lon": 82.634596,
      "city": "Усть-Каменогорск",
      "region": "Восточно-Казахстанская область"
    },
    {
      "name": "Улица Жибек Жолы, 1 к8, Усть-Каменогорск",
      "address": "Улица Жибек Жолы, 1 к8, Усть-Каменогорск, Усть-Каменогорск городская администрация",
      "lat": 49.928775,
      "lon": 82.612948,
      "city": "Усть-Каменогорск",
      "region": "Восточно-Казахстанская область"
    },
    {
      "name": "Улица Казахстан, 70а, Усть-Каменогорск",
      "address": "Улица Казахстан, 70а, Усть-Каменогорск, Усть-Каменогорск городская администрация",
      "lat": 49.948685,
      "lon": 82.629408,
      "city": "Усть-Каменогорск",
      "region": "Восточно-Казахстанская область"
    },
    {
      "name": "Улица Новаторов, 18/2, Усть-Каменогорск",
      "address": "Улица Новаторов, 18/2, Усть-Каменогорск, Усть-Каменогорск городская администрация",
      "lat": 49.955121,
      "lon": 82.647465,
      "city": "Усть-Каменогорск",
      "region": "Восточно-Казахстанская область"
    },
    {
      "name": "Кайнар, Центральный рынок, Усть-Каменогорск",
      "address": "Кайнар, Центральный рынок, улица Кабанбай батыра, 148, Усть-Каменогорск, Усть-Каменогорск городская администрация",
      "lat": 49.952394,
      "lon": 82.631609,
      "city": "Усть-Каменогорск",
      "region": "Восточно-Казахстанская область"
    },
    {
      "name": "Нурсултана Назарбаева проспект, 28а, Усть-Каменогорск",
      "address": "Нурсултана Назарбаева проспект, 28а, Усть-Каменогорск, Усть-Каменогорск городская администрация",
      "lat": 49.962459,
      "lon": 82.602894,
      "city": "Усть-Каменогорск",
      "region": "Восточно-Казахстанская область"
    }
  ]
}